{"type":"FeatureCollection","features":[{"type":"Feature","id":"node/456849742","properties":{"type":"node","id":456849742,"tags":{"addr:city":"Milano","addr:street":"Piazzale Lagosta","amenity":"taxi","name":"Posteggio Taxi Piazzale Lagosta","phone":"+39 02 603984","source":"personal survey on site (including phone number)"},"relations":[],"meta":{},"addr:city":"Milano","addr:street":"Piazzale Lagosta","amenity":"taxi","name":"Posteggio Taxi Piazzale Lagosta","phone":"+39 02 603984","source":"personal survey on site (including phone number)"},"geometry":{"type":"Point","coordinates":[9.191109,45.4890027]}},{"type":"Feature","id":"node/959824652","properties":{"type":"node","id":959824652,"tags":{"bus":"yes","highway":"bus_stop","name":"Viale Stelvio - Via Lario","public_transport":"platform","ref":"11641","shelter":"yes"},"relations":[],"meta":{},"bus":"yes","highway":"bus_stop","name":"Viale Stelvio - Via Lario","public_transport":"platform","ref":"11641","shelter":"yes"},"geometry":{"type":"Point","coordinates":[9.1910176,45.4931049]}},{"type":"Feature","id":"node/1279742024","properties":{"type":"node","id":1279742024,"tags":{"bench":"no","bin":"yes","bus":"yes","highway":"bus_stop","lit":"yes","name":"Via Farini - Viale Stelvio","public_transport":"platform","ref":"11620","shelter":"yes","tactile_paving":"no"},"relations":[],"meta":{},"bench":"no","bin":"yes","bus":"yes","highway":"bus_stop","lit":"yes","name":"Via Farini - Viale Stelvio","public_transport":"platform","ref":"11620","shelter":"yes","tactile_paving":"no"},"geometry":{"type":"Point","coordinates":[9.1857781,45.4944002]}},{"type":"Feature","id":"node/1279742039","properties":{"type":"node","id":1279742039,"tags":{"bench":"no","bin":"yes","bus":"yes","highway":"bus_stop","lit":"yes","name":"Via Farini - Viale Stelvio","public_transport":"platform","ref":"11622","shelter":"yes","tactile_paving":"no"},"relations":[],"meta":{},"bench":"no","bin":"yes","bus":"yes","highway":"bus_stop","lit":"yes","name":"Via Farini - Viale Stelvio","public_transport":"platform","ref":"11622","shelter":"yes","tactile_paving":"no"},"geometry":{"type":"Point","coordinates":[9.185647,45.494527]}},{"type":"Feature","id":"node/1279742054","properties":{"type":"node","id":1279742054,"tags":{"bench":"yes","bin":"no","bus":"yes","check_date:shelter":"2020-11-01","highway":"bus_stop","name":"Zara M3 M5","old_name":"Viale Sauro - Viale Zara","public_transport":"platform","ref":"11895","shelter":"yes","tactile_paving":"no"},"relations":[],"meta":{},"bench":"yes","bin":"no","bus":"yes","check_date:shelter":"2020-11-01","highway":"bus_stop","name":"Zara M3 M5","old_name":"Viale Sauro - Viale Zara","public_transport":"platform","ref":"11895","shelter":"yes","tactile_paving":"no"},"geometry":{"type":"Point","coordinates":[9.1934235,45.4924671]}},{"type":"Feature","id":"node/1279742061","properties":{"type":"node","id":1279742061,"tags":{"bench":"no","bin":"yes","bus":"yes","comment:it":"fermata autobus extra urbani z150 Milano - Cantu e z130 Milano - Senago - Limbiate di Airpulman","highway":"bus_stop","mapillary":"377418030219867","name":"Miano Viale Zara 52 - MM3 (dep. ATM)","pole":"yes","public_transport":"platform","shelter":"no","survey:date":"2018-04-30","tactile_paving":"no"},"relations":[],"meta":{},"bench":"no","bin":"yes","bus":"yes","comment:it":"fermata autobus extra urbani z150 Milano - Cantu e z130 Milano - Senago - Limbiate di Airpulman","highway":"bus_stop","mapillary":"377418030219867","name":"Miano Viale Zara 52 - MM3 (dep. ATM)","pole":"yes","public_transport":"platform","shelter":"no","survey:date":"2018-04-30","tactile_paving":"no"},"geometry":{"type":"Point","coordinates":[9.1932098,45.4939014]}},{"type":"Feature","id":"node/1279742065","properties":{"type":"node","id":1279742065,"tags":{"bench":"no","bin":"yes","bus":"yes","highway":"bus_stop","lit":"yes","name":"Via Farini - Viale Stelvio","public_transport":"platform","ref":"15531","shelter":"no","tactile_paving":"no"},"relations":[],"meta":{},"bench":"no","bin":"yes","bus":"yes","highway":"bus_stop","lit":"yes","name":"Via Farini - Viale Stelvio","public_transport":"platform","ref":"15531","shelter":"no","tactile_paving":"no"},"geometry":{"type":"Point","coordinates":[9.1858454,45.4945552]}},{"type":"Feature","id":"node/1279742073","properties":{"type":"node","id":1279742073,"tags":{"bench":"yes","bin":"yes","bus":"yes","check_date:shelter":"2020-11-01","highway":"bus_stop","name":"Zara M3 M5","old_name":"Viale Sauro - Viale Zara","public_transport":"platform","ref":"11896","shelter":"yes","tactile_paving":"no"},"relations":[],"meta":{},"bench":"yes","bin":"yes","bus":"yes","check_date:shelter":"2020-11-01","highway":"bus_stop","name":"Zara M3 M5","old_name":"Viale Sauro - Viale Zara","public_transport":"platform","ref":"11896","shelter":"yes","tactile_paving":"no"},"geometry":{"type":"Point","coordinates":[9.1933501,45.4924]}},{"type":"Feature","id":"node/1295523740","properties":{"type":"node","id":1295523740,"tags":{"bench":"yes","bin":"yes","bus":"yes","highway":"bus_stop","name":"Piazzale Lagosta","old_name":"Via Traù - Piazzale Segrino","public_transport":"platform","ref":"11633","shelter":"yes"},"relations":[],"meta":{},"bench":"yes","bin":"yes","bus":"yes","highway":"bus_stop","name":"Piazzale Lagosta","old_name":"Via Traù - Piazzale Segrino","public_transport":"platform","ref":"11633","shelter":"yes"},"geometry":{"type":"Point","coordinates":[9.1898384,45.4901077]}},{"type":"Feature","id":"node/1295531541","properties":{"type":"node","id":1295531541,"tags":{"bus":"yes","highway":"bus_stop","name":"Piazzale Segrino","public_transport":"platform"},"relations":[],"meta":{},"bus":"yes","highway":"bus_stop","name":"Piazzale Segrino","public_transport":"platform"},"geometry":{"type":"Point","coordinates":[9.1894348,45.4908983]}},{"type":"Feature","id":"node/1514331921","properties":{"type":"node","id":1514331921,"tags":{"amenity":"parking_entrance","layer":"-1","name":"Parcheggio Sotterraneo"},"relations":[],"meta":{},"amenity":"parking_entrance","layer":"-1","name":"Parcheggio Sotterraneo"},"geometry":{"type":"Point","coordinates":[9.185149,45.4947988]}},{"type":"Feature","id":"node/1547092080","properties":{"type":"node","id":1547092080,"tags":{"bench":"yes","bus":"yes","highway":"bus_stop","name":"Via Lario - Via Nava","public_transport":"platform","ref":"11637","shelter":"yes","tactile_paving":"yes"},"relations":[],"meta":{},"bench":"yes","bus":"yes","highway":"bus_stop","name":"Via Lario - Via Nava","public_transport":"platform","ref":"11637","shelter":"yes","tactile_paving":"yes"},"geometry":{"type":"Point","coordinates":[9.1909924,45.4941231]}},{"type":"Feature","id":"node/1547093044","properties":{"type":"node","id":1547093044,"tags":{"bench":"no","bus":"yes","highway":"bus_stop","name":"Viale Stelvio - Via Lario","public_transport":"platform","ref":"11642","shelter":"no","tactile_paving":"no"},"relations":[],"meta":{},"bench":"no","bus":"yes","highway":"bus_stop","name":"Viale Stelvio - Via Lario","public_transport":"platform","ref":"11642","shelter":"no","tactile_paving":"no"},"geometry":{"type":"Point","coordinates":[9.1910532,45.4929275]}},{"type":"Feature","id":"node/1547094139","properties":{"type":"node","id":1547094139,"tags":{"bus":"yes","highway":"bus_stop","mapillary":"485600752767490","name":"Zara M3 M5","pole":"yes","public_transport":"platform","ref":"11640","shelter":"no","survey:date":"2019-11-08"},"relations":[],"meta":{},"bus":"yes","highway":"bus_stop","mapillary":"485600752767490","name":"Zara M3 M5","pole":"yes","public_transport":"platform","ref":"11640","shelter":"no","survey:date":"2019-11-08"},"geometry":{"type":"Point","coordinates":[9.1922449,45.4917583]}},{"type":"Feature","id":"node/1547095073","properties":{"type":"node","id":1547095073,"tags":{"bench":"no","bin":"yes","bus":"yes","highway":"bus_stop","lit":"yes","name":"Zara M3","public_transport":"platform","shelter":"no","tactile_paving":"yes"},"relations":[],"meta":{},"bench":"no","bin":"yes","bus":"yes","highway":"bus_stop","lit":"yes","name":"Zara M3","public_transport":"platform","shelter":"no","tactile_paving":"yes"},"geometry":{"type":"Point","coordinates":[9.192984,45.4921386]}},{"type":"Feature","id":"node/1547097088","properties":{"type":"node","id":1547097088,"tags":{"bus":"yes","highway":"bus_stop","name":"Viale Stelvio - Via Lario","public_transport":"platform","shelter":"no"},"relations":[],"meta":{},"bus":"yes","highway":"bus_stop","name":"Viale Stelvio - Via Lario","public_transport":"platform","shelter":"no"},"geometry":{"type":"Point","coordinates":[9.1910367,45.4931652]}},{"type":"Feature","id":"node/1547098418","properties":{"type":"node","id":1547098418,"tags":{"bench":"no","bus":"yes","highway":"bus_stop","name":"Via Lario - Via Nava","public_transport":"platform","ref":"13097","shelter":"no","tactile_paving":"yes"},"relations":[],"meta":{},"bench":"no","bus":"yes","highway":"bus_stop","name":"Via Lario - Via Nava","public_transport":"platform","ref":"13097","shelter":"no","tactile_paving":"yes"},"geometry":{"type":"Point","coordinates":[9.1913518,45.4944203]}},{"type":"Feature","id":"node/1860891777","properties":{"type":"node","id":1860891777,"tags":{"bench":"yes","bin":"yes","bus":"yes","highway":"bus_stop","lit":"yes","name":"Piazzale Lagosta","public_transport":"platform","ref":"11632","shelter":"yes","tactile_paving":"no"},"relations":[],"meta":{},"bench":"yes","bin":"yes","bus":"yes","highway":"bus_stop","lit":"yes","name":"Piazzale Lagosta","public_transport":"platform","ref":"11632","shelter":"yes","tactile_paving":"no"},"geometry":{"type":"Point","coordinates":[9.1905168,45.4895954]}},{"type":"Feature","id":"node/1937224299","properties":{"type":"node","id":1937224299,"tags":{"bench":"yes","bin":"yes","bus":"yes","check_date:shelter":"2022-03-20","highway":"bus_stop","name":"Via Pola - Piazzale Lagosta","passenger_information_display":"no","public_transport":"platform","ref":"12985","shelter":"yes"},"relations":[],"meta":{},"bench":"yes","bin":"yes","bus":"yes","check_date:shelter":"2022-03-20","highway":"bus_stop","name":"Via Pola - Piazzale Lagosta","passenger_information_display":"no","public_transport":"platform","ref":"12985","shelter":"yes"},"geometry":{"type":"Point","coordinates":[9.1923292,45.4892198]}},{"type":"Feature","id":"node/1943345534","properties":{"type":"node","id":1943345534,"tags":{"amenity":"bicycle_parking","bicycle_parking":"Verona_rack","capacity":"5","covered":"no"},"relations":[],"meta":{},"amenity":"bicycle_parking","bicycle_parking":"Verona_rack","capacity":"5","covered":"no"},"geometry":{"type":"Point","coordinates":[9.1911055,45.4881238]}},{"type":"Feature","id":"node/1943345552","properties":{"type":"node","id":1943345552,"tags":{"amenity":"bicycle_parking","bicycle_parking":"Verona_rack","capacity":"5","covered":"no"},"relations":[],"meta":{},"amenity":"bicycle_parking","bicycle_parking":"Verona_rack","capacity":"5","covered":"no"},"geometry":{"type":"Point","coordinates":[9.1909776,45.4886665]}},{"type":"Feature","id":"node/1992077978","properties":{"type":"node","id":1992077978,"tags":{"amenity":"bicycle_rental","brand":"BikeMi","brand:wikidata":"Q2902552","brand:wikipedia":"en:BikeMi","capacity":"35","fee":"yes","name":"Lagosta","network":"BikeMi","operator":"Clear Channel","payment:credit_cards":"no","ref":"196","source":"https://www.bikemi.com/it/mappa-stazioni.aspx","website":"https://www.bikemi.com","wheelchair":"yes"},"relations":[],"meta":{},"amenity":"bicycle_rental","brand":"BikeMi","brand:wikidata":"Q2902552","brand:wikipedia":"en:BikeMi","capacity":"35","fee":"yes","name":"Lagosta","network":"BikeMi","operator":"Clear Channel","payment:credit_cards":"no","ref":"196","source":"https://www.bikemi.com/it/mappa-stazioni.aspx","website":"https://www.bikemi.com","wheelchair":"yes"},"geometry":{"type":"Point","coordinates":[9.1908414,45.4890834]}},{"type":"Feature","id":"node/2141583488","properties":{"type":"node","id":2141583488,"tags":{"amenity":"motorcycle_parking","bicycle_parking":"stands","capacity":"5","comment":"Manca segnaletica verticale","covered":"no"},"relations":[],"meta":{},"amenity":"motorcycle_parking","bicycle_parking":"stands","capacity":"5","comment":"Manca segnaletica verticale","covered":"no"},"geometry":{"type":"Point","coordinates":[9.1880096,45.4906577]}},{"type":"Feature","id":"node/2252712885","properties":{"type":"node","id":2252712885,"tags":{"amenity":"bicycle_parking","bicycle_parking":"stands","capacity":"20","motorcycle":"yes"},"relations":[],"meta":{},"amenity":"bicycle_parking","bicycle_parking":"stands","capacity":"20","motorcycle":"yes"},"geometry":{"type":"Point","coordinates":[9.185375,45.489256]}},{"type":"Feature","id":"node/2325726419","properties":{"type":"node","id":2325726419,"tags":{"amenity":"bicycle_rental","brand":"BikeMi","brand:wikidata":"Q2902552","brand:wikipedia":"en:BikeMi","capacity":"35","fee":"yes","name":"Zara M3","network":"BikeMi","operator":"Clear Channel","payment:credit_cards":"no","ref":"160","source":"https://www.bikemi.com/it/mappa-stazioni.aspx","website":"https://www.bikemi.com"},"relations":[],"meta":{},"amenity":"bicycle_rental","brand":"BikeMi","brand:wikidata":"Q2902552","brand:wikipedia":"en:BikeMi","capacity":"35","fee":"yes","name":"Zara M3","network":"BikeMi","operator":"Clear Channel","payment:credit_cards":"no","ref":"160","source":"https://www.bikemi.com/it/mappa-stazioni.aspx","website":"https://www.bikemi.com"},"geometry":{"type":"Point","coordinates":[9.1918902,45.4915607]}},{"type":"Feature","id":"node/2419304189","properties":{"type":"node","id":2419304189,"tags":{"bench":"no","bus":"yes","covered":"no","highway":"bus_stop","name":"Viale Stelvio - Via Lario","public_transport":"platform","ref":"11636","shelter":"no"},"relations":[],"meta":{},"bench":"no","bus":"yes","covered":"no","highway":"bus_stop","name":"Viale Stelvio - Via Lario","public_transport":"platform","ref":"11636","shelter":"no"},"geometry":{"type":"Point","coordinates":[9.1902326,45.49325]}},{"type":"Feature","id":"node/2419311329","properties":{"type":"node","id":2419311329,"tags":{"bench":"no","bin":"no","bus":"yes","covered":"no","highway":"bus_stop","lit":"no","name":"Zara M3 M5","public_transport":"platform","ref":"12981","shelter":"no","tactile_paving":"no"},"relations":[],"meta":{},"bench":"no","bin":"no","bus":"yes","covered":"no","highway":"bus_stop","lit":"no","name":"Zara M3 M5","public_transport":"platform","ref":"12981","shelter":"no","tactile_paving":"no"},"geometry":{"type":"Point","coordinates":[9.1934345,45.4922797]}},{"type":"Feature","id":"node/2488621627","properties":{"type":"node","id":2488621627,"tags":{"addr:city":"Milano","addr:housenumber":"8","addr:postcode":"20159","addr:street":"Via Antonio Pollaiuolo","amenity":"car_rental","name":"noleggio mariani"},"relations":[],"meta":{},"addr:city":"Milano","addr:housenumber":"8","addr:postcode":"20159","addr:street":"Via Antonio Pollaiuolo","amenity":"car_rental","name":"noleggio mariani"},"geometry":{"type":"Point","coordinates":[9.1877802,45.4895065]}},{"type":"Feature","id":"node/2707129442","properties":{"type":"node","id":2707129442,"tags":{"bench":"no","bin":"yes","bus":"yes","covered":"no","highway":"bus_stop","name":"Zara M3 M5","public_transport":"platform","ref":"19931","shelter":"no","tactile_paving":"no"},"relations":[],"meta":{},"bench":"no","bin":"yes","bus":"yes","covered":"no","highway":"bus_stop","name":"Zara M3 M5","public_transport":"platform","ref":"19931","shelter":"no","tactile_paving":"no"},"geometry":{"type":"Point","coordinates":[9.1929112,45.493361]}},{"type":"Feature","id":"node/2707129452","properties":{"type":"node","id":2707129452,"tags":{"bench":"yes","bin":"yes","bus":"yes","highway":"bus_stop","name":"Zara M3 M5","network":"ATM","network:wikidata":"Q381955","network:wikipedia":"it:ATM (Milano)","operator":"ATM","public_transport":"platform","ref":"17341","shelter":"yes","tactile_paving":"no"},"relations":[],"meta":{},"bench":"yes","bin":"yes","bus":"yes","highway":"bus_stop","name":"Zara M3 M5","network":"ATM","network:wikidata":"Q381955","network:wikipedia":"it:ATM (Milano)","operator":"ATM","public_transport":"platform","ref":"17341","shelter":"yes","tactile_paving":"no"},"geometry":{"type":"Point","coordinates":[9.1926886,45.4930386]}},{"type":"Feature","id":"node/4142387316","properties":{"type":"node","id":4142387316,"tags":{"amenity":"bicycle_rental","bicycle_rental":"docking_station","brand":"BikeMi","brand:wikidata":"Q2902552","brand:wikipedia":"en:BikeMi","capacity":"26","fee":"yes","name":"Valtellina - Aprica","network":"BikeMi","operator":"Clear Channel","payment:credit_cards":"no","ref":"257","source":"https://www.bikemi.com/it/mappa-stazioni.aspx","website":"https://www.bikemi.com"},"relations":[],"meta":{},"amenity":"bicycle_rental","bicycle_rental":"docking_station","brand":"BikeMi","brand:wikidata":"Q2902552","brand:wikipedia":"en:BikeMi","capacity":"26","fee":"yes","name":"Valtellina - Aprica","network":"BikeMi","operator":"Clear Channel","payment:credit_cards":"no","ref":"257","source":"https://www.bikemi.com/it/mappa-stazioni.aspx","website":"https://www.bikemi.com"},"geometry":{"type":"Point","coordinates":[9.1824584,45.4930892]}},{"type":"Feature","id":"node/4168033304","properties":{"type":"node","id":4168033304,"tags":{"amenity":"bicycle_parking","bicycle_parking":"Verona_rack","capacity":"15"},"relations":[],"meta":{},"amenity":"bicycle_parking","bicycle_parking":"Verona_rack","capacity":"15"},"geometry":{"type":"Point","coordinates":[9.1927657,45.4920865]}},{"type":"Feature","id":"node/4168033305","properties":{"type":"node","id":4168033305,"tags":{"amenity":"bicycle_parking","bicycle_parking":"Verona_rack","capacity":"15","covered":"no"},"relations":[],"meta":{},"amenity":"bicycle_parking","bicycle_parking":"Verona_rack","capacity":"15","covered":"no"},"geometry":{"type":"Point","coordinates":[9.1924053,45.4921848]}},{"type":"Feature","id":"node/4572043280","properties":{"type":"node","id":4572043280,"tags":{"amenity":"bicycle_rental","bicycle_rental":"docking_station","brand":"BikeMi","brand:wikidata":"Q2902552","brand:wikipedia":"en:BikeMi","capacity":"30","fee":"yes","name":"Alserio - Cola","network":"BikeMi","operator":"Clear Channel","payment:credit_cards":"no","ref":"317","source":"https://www.bikemi.com/it/mappa-stazioni.aspx","website":"https://www.bikemi.com","wheelchair":"limited"},"relations":[],"meta":{},"amenity":"bicycle_rental","bicycle_rental":"docking_station","brand":"BikeMi","brand:wikidata":"Q2902552","brand:wikipedia":"en:BikeMi","capacity":"30","fee":"yes","name":"Alserio - Cola","network":"BikeMi","operator":"Clear Channel","payment:credit_cards":"no","ref":"317","source":"https://www.bikemi.com/it/mappa-stazioni.aspx","website":"https://www.bikemi.com","wheelchair":"limited"},"geometry":{"type":"Point","coordinates":[9.1856719,45.491013]}},{"type":"Feature","id":"node/4590670110","properties":{"type":"node","id":4590670110,"tags":{"amenity":"bicycle_parking","bicycle_parking":"wall_loops","capacity":"12","covered":"no"},"relations":[],"meta":{},"amenity":"bicycle_parking","bicycle_parking":"wall_loops","capacity":"12","covered":"no"},"geometry":{"type":"Point","coordinates":[9.1930999,45.4892816]}},{"type":"Feature","id":"node/4590670121","properties":{"type":"node","id":4590670121,"tags":{"amenity":"bicycle_rental","brand":"BikeMi","brand:wikidata":"Q2902552","brand:wikipedia":"en:BikeMi","capacity":"36","fee":"yes","name":"Pola - Regione Lombardia","network":"BikeMi","operator":"Clear Channel","payment:credit_cards":"no","ref":"195","source":"https://www.bikemi.com/it/mappa-stazioni.aspx","website":"https://www.bikemi.com"},"relations":[],"meta":{},"amenity":"bicycle_rental","brand":"BikeMi","brand:wikidata":"Q2902552","brand:wikipedia":"en:BikeMi","capacity":"36","fee":"yes","name":"Pola - Regione Lombardia","network":"BikeMi","operator":"Clear Channel","payment:credit_cards":"no","ref":"195","source":"https://www.bikemi.com/it/mappa-stazioni.aspx","website":"https://www.bikemi.com"},"geometry":{"type":"Point","coordinates":[9.1932649,45.4890856]}},{"type":"Feature","id":"node/5111687993","properties":{"type":"node","id":5111687993,"tags":{"bench":"yes","bin":"yes","bus":"yes","highway":"bus_stop","lit":"yes","name":"Via Farini Via Valtellina","public_transport":"platform","railway":"tram_stop","ref":"11612","shelter":"yes","tactile_paving":"yes","tram":"yes","wheelchair":"yes"},"relations":[],"meta":{},"bench":"yes","bin":"yes","bus":"yes","highway":"bus_stop","lit":"yes","name":"Via Farini Via Valtellina","public_transport":"platform","railway":"tram_stop","ref":"11612","shelter":"yes","tactile_paving":"yes","tram":"yes","wheelchair":"yes"},"geometry":{"type":"Point","coordinates":[9.1831434,45.489227]}},{"type":"Feature","id":"node/5853343453","properties":{"type":"node","id":5853343453,"tags":{"amenity":"fuel","operator":"Autoservizi Mariani S.R.L.","ref:mise":"37433","wheelchair":"no"},"relations":[],"meta":{},"amenity":"fuel","operator":"Autoservizi Mariani S.R.L.","ref:mise":"37433","wheelchair":"no"},"geometry":{"type":"Point","coordinates":[9.1877335,45.4894399]}},{"type":"Feature","id":"node/6466308397","properties":{"type":"node","id":6466308397,"tags":{"access":"private","amenity":"parking_entrance","layer":"-1"},"relations":[],"meta":{},"access":"private","amenity":"parking_entrance","layer":"-1"},"geometry":{"type":"Point","coordinates":[9.1896353,45.4897068]}},{"type":"Feature","id":"node/6466471768","properties":{"type":"node","id":6466471768,"tags":{"access":"private","amenity":"bicycle_parking"},"relations":[],"meta":{},"access":"private","amenity":"bicycle_parking"},"geometry":{"type":"Point","coordinates":[9.1896675,45.489747]}},{"type":"Feature","id":"node/6466471769","properties":{"type":"node","id":6466471769,"tags":{"access":"private","amenity":"bicycle_parking"},"relations":[],"meta":{},"access":"private","amenity":"bicycle_parking"},"geometry":{"type":"Point","coordinates":[9.1896058,45.4897374]}},{"type":"Feature","id":"node/6727793827","properties":{"type":"node","id":6727793827,"tags":{"amenity":"bicycle_rental","bicycle_rental":"docking_station","brand":"BikeMi","brand:wikidata":"Q2902552","brand:wikipedia":"en:BikeMi","capacity":"30","fee":"yes","name":"Stelvio - Farini","network":"BikeMi","operator":"Clear Channel","payment:credit_cards":"no","ref":"270","source":"https://www.bikemi.com/it/mappa-stazioni.aspx","website":"https://www.bikemi.com"},"relations":[],"meta":{},"amenity":"bicycle_rental","bicycle_rental":"docking_station","brand":"BikeMi","brand:wikidata":"Q2902552","brand:wikipedia":"en:BikeMi","capacity":"30","fee":"yes","name":"Stelvio - Farini","network":"BikeMi","operator":"Clear Channel","payment:credit_cards":"no","ref":"270","source":"https://www.bikemi.com/it/mappa-stazioni.aspx","website":"https://www.bikemi.com"},"geometry":{"type":"Point","coordinates":[9.1849673,45.494787]}},{"type":"Feature","id":"node/6727793829","properties":{"type":"node","id":6727793829,"tags":{"amenity":"bicycle_rental","bicycle_rental":"docking_station","brand":"BikeMi","brand:wikidata":"Q2902552","brand:wikipedia":"en:BikeMi","capacity":"36","fee":"yes","name":"Valtellina - Farini","network":"BikeMi","operator":"Clear Channel","payment:credit_cards":"no","ref":"204","source":"https://www.bikemi.com/it/mappa-stazioni.aspx","website":"https://www.bikemi.com"},"relations":[],"meta":{},"amenity":"bicycle_rental","bicycle_rental":"docking_station","brand":"BikeMi","brand:wikidata":"Q2902552","brand:wikipedia":"en:BikeMi","capacity":"36","fee":"yes","name":"Valtellina - Farini","network":"BikeMi","operator":"Clear Channel","payment:credit_cards":"no","ref":"204","source":"https://www.bikemi.com/it/mappa-stazioni.aspx","website":"https://www.bikemi.com"},"geometry":{"type":"Point","coordinates":[9.1822851,45.4888717]}},{"type":"Feature","id":"node/7952362836","properties":{"type":"node","id":7952362836,"tags":{"amenity":"bicycle_parking","bicycle_parking":"stands","capacity":"5","covered":"no"},"relations":[],"meta":{},"amenity":"bicycle_parking","bicycle_parking":"stands","capacity":"5","covered":"no"},"geometry":{"type":"Point","coordinates":[9.1858209,45.4924212]}},{"type":"Feature","id":"node/7952362837","properties":{"type":"node","id":7952362837,"tags":{"amenity":"bicycle_parking","bicycle_parking":"stands","capacity":"5","covered":"no"},"relations":[],"meta":{},"amenity":"bicycle_parking","bicycle_parking":"stands","capacity":"5","covered":"no"},"geometry":{"type":"Point","coordinates":[9.1857585,45.4924015]}},{"type":"Feature","id":"node/7952362842","properties":{"type":"node","id":7952362842,"tags":{"amenity":"bicycle_parking","bicycle_parking":"stands","capacity":"10","covered":"no"},"relations":[],"meta":{},"amenity":"bicycle_parking","bicycle_parking":"stands","capacity":"10","covered":"no"},"geometry":{"type":"Point","coordinates":[9.1855775,45.4930723]}},{"type":"Feature","id":"node/7952362844","properties":{"type":"node","id":7952362844,"tags":{"amenity":"bicycle_parking","bicycle_parking":"stands","capacity":"10","covered":"no"},"relations":[],"meta":{},"amenity":"bicycle_parking","bicycle_parking":"stands","capacity":"10","covered":"no"},"geometry":{"type":"Point","coordinates":[9.1853736,45.4930036]}},{"type":"Feature","id":"node/8265067945","properties":{"type":"node","id":8265067945,"tags":{"amenity":"bicycle_parking","bicycle_parking":"stands","capacity":"10","covered":"no"},"relations":[],"meta":{},"amenity":"bicycle_parking","bicycle_parking":"stands","capacity":"10","covered":"no"},"geometry":{"type":"Point","coordinates":[9.1852643,45.4912277]}},{"type":"Feature","id":"node/9083530861","properties":{"type":"node","id":9083530861,"tags":{"amenity":"bicycle_parking","bicycle_parking":"verona_rack","capacity":"5","covered":"no"},"relations":[],"meta":{},"amenity":"bicycle_parking","bicycle_parking":"verona_rack","capacity":"5","covered":"no"},"geometry":{"type":"Point","coordinates":[9.1887593,45.4924132]}},{"type":"Feature","id":"node/9836271866","properties":{"type":"node","id":9836271866,"tags":{"description":"Area STIBM: Mi1","name":"Zara","network":"STIBM","operator":"ATM","public_transport":"station","railway":"station","start_date":"2013","station":"subway","wheelchair":"yes","wikidata":"Q1088305","wikipedia":"it:Zara (metropolitana di Milano)"},"relations":[],"meta":{},"description":"Area STIBM: Mi1","name":"Zara","network":"STIBM","operator":"ATM","public_transport":"station","railway":"station","start_date":"2013","station":"subway","wheelchair":"yes","wikidata":"Q1088305","wikipedia":"it:Zara (metropolitana di Milano)"},"geometry":{"type":"Point","coordinates":[9.1928945,45.4926642]}},{"type":"Feature","id":"node/9836271867","properties":{"type":"node","id":9836271867,"tags":{"description":"Area STIBM: Mi1","name":"Zara","network":"STIBM","operator":"ATM","public_transport":"station","railway":"station","start_date":"1995","station":"subway","wheelchair":"yes","wikidata":"Q1088305","wikipedia":"it:Zara (metropolitana di Milano)"},"relations":[],"meta":{},"description":"Area STIBM: Mi1","name":"Zara","network":"STIBM","operator":"ATM","public_transport":"station","railway":"station","start_date":"1995","station":"subway","wheelchair":"yes","wikidata":"Q1088305","wikipedia":"it:Zara (metropolitana di Milano)"},"geometry":{"type":"Point","coordinates":[9.1928456,45.4925839]}},{"type":"Feature","id":"node/11236573939","properties":{"type":"node","id":11236573939,"tags":{"bench":"no","bin":"yes","bus":"yes","highway":"bus_stop","lit":"yes","name":"Zara M3 M5","public_transport":"platform","ref":"17343","shelter":"no","tactile_paving":"no"},"relations":[],"meta":{},"bench":"no","bin":"yes","bus":"yes","highway":"bus_stop","lit":"yes","name":"Zara M3 M5","public_transport":"platform","ref":"17343","shelter":"no","tactile_paving":"no"},"geometry":{"type":"Point","coordinates":[9.1930481,45.493634]}},{"type":"Feature","id":"node/11289117934","properties":{"type":"node","id":11289117934,"tags":{"amenity":"charging_station","capacity":"2","fee":"yes","motorcar":"yes","opening_hours":"24/7","operator":"a2a"},"relations":[],"meta":{},"amenity":"charging_station","capacity":"2","fee":"yes","motorcar":"yes","opening_hours":"24/7","operator":"a2a"},"geometry":{"type":"Point","coordinates":[9.192976,45.4893291]}},{"type":"Feature","id":"node/11349083243","properties":{"type":"node","id":11349083243,"tags":{"amenity":"charging_station","fee":"no","motorcar":"yes","name":"a2a","opening_hours":"24/7","operator":"a2a","socket:type2":"2"},"relations":[],"meta":{},"amenity":"charging_station","fee":"no","motorcar":"yes","name":"a2a","opening_hours":"24/7","operator":"a2a","socket:type2":"2"},"geometry":{"type":"Point","coordinates":[9.1909848,45.4940199]}},{"type":"Feature","id":"node/11381441089","properties":{"type":"node","id":11381441089,"tags":{"bench":"no","highway":"platform","name":"Piazzale Lagosta","name:etymology:wikidata":"Q216878","public_transport":"platform","ref":"17337","shelter":"no"},"relations":[],"meta":{},"bench":"no","highway":"platform","name":"Piazzale Lagosta","name:etymology:wikidata":"Q216878","public_transport":"platform","ref":"17337","shelter":"no"},"geometry":{"type":"Point","coordinates":[9.1911283,45.489982]}},{"type":"Feature","id":"way/24759848","properties":{"type":"way","id":24759848,"tags":{"access":"permissive","amenity":"parking","name":"Piazza Santa Maria alla Fontana","parking":"surface"},"relations":[],"meta":{},"geometry":"center","access":"permissive","amenity":"parking","name":"Piazza Santa Maria alla Fontana","parking":"surface"},"geometry":{"type":"Point","coordinates":[9.1882217,45.4926081]}},{"type":"Feature","id":"way/25828565","properties":{"type":"way","id":25828565,"tags":{"access":"yes","amenity":"parking","fee":"no","parking":"surface","wheelchair":"yes"},"relations":[],"meta":{},"geometry":"center","access":"yes","amenity":"parking","fee":"no","parking":"surface","wheelchair":"yes"},"geometry":{"type":"Point","coordinates":[9.1853449,45.4952828]}},{"type":"Feature","id":"way/136292570","properties":{"type":"way","id":136292570,"tags":{"bench":"no","bin":"yes","bus":"no","footway":"sidewalk","highway":"footway","lit":"yes","name":"Via Farini V.le Stelvio","public_transport":"platform","railway":"platform","ref":"11617","shelter":"no","surface":"paving_stones","tactile_paving":"yes","tram":"yes"},"relations":[],"meta":{},"geometry":"center","bench":"no","bin":"yes","bus":"no","footway":"sidewalk","highway":"footway","lit":"yes","name":"Via Farini V.le Stelvio","public_transport":"platform","railway":"platform","ref":"11617","shelter":"no","surface":"paving_stones","tactile_paving":"yes","tram":"yes"},"geometry":{"type":"Point","coordinates":[9.1848324,45.4946451]}},{"type":"Feature","id":"way/136292573","properties":{"type":"way","id":136292573,"tags":{"bench":"yes","bin":"yes","footway":"sidewalk","highway":"footway","lit":"yes","mapillary":"142533221196181","name":"Via Farini - Viale Stelvio","public_transport":"platform","railway":"platform","ref":"11616","shelter":"yes","surface":"asphalt","survey:date":"2021-03-01","tactile_paving":"yes","tram":"yes"},"relations":[],"meta":{},"geometry":"center","bench":"yes","bin":"yes","footway":"sidewalk","highway":"footway","lit":"yes","mapillary":"142533221196181","name":"Via Farini - Viale Stelvio","public_transport":"platform","railway":"platform","ref":"11616","shelter":"yes","surface":"asphalt","survey:date":"2021-03-01","tactile_paving":"yes","tram":"yes"},"geometry":{"type":"Point","coordinates":[9.1851952,45.494158]}},{"type":"Feature","id":"way/188744860","properties":{"type":"way","id":188744860,"tags":{"bench":"no","bin":"yes","bus":"no","footway":"sidewalk","highway":"footway","lit":"yes","public_transport":"platform","railway":"platform","shelter":"no","surface":"sett","tactile_paving":"no","tram":"yes"},"relations":[],"meta":{},"geometry":"center","bench":"no","bin":"yes","bus":"no","footway":"sidewalk","highway":"footway","lit":"yes","public_transport":"platform","railway":"platform","shelter":"no","surface":"sett","tactile_paving":"no","tram":"yes"},"geometry":{"type":"Point","coordinates":[9.1858063,45.4944844]}},{"type":"Feature","id":"way/229065154","properties":{"type":"way","id":229065154,"tags":{"access":"yes","amenity":"parking","fee":"yes","parking":"surface"},"relations":[],"meta":{},"geometry":"center","access":"yes","amenity":"parking","fee":"yes","parking":"surface"},"geometry":{"type":"Point","coordinates":[9.1923893,45.4943845]}},{"type":"Feature","id":"way/229065155","properties":{"type":"way","id":229065155,"tags":{"access":"yes","amenity":"parking","fee":"yes","parking":"surface"},"relations":[],"meta":{},"geometry":"center","access":"yes","amenity":"parking","fee":"yes","parking":"surface"},"geometry":{"type":"Point","coordinates":[9.1836715,45.4934551]}},{"type":"Feature","id":"way/229065156","properties":{"type":"way","id":229065156,"tags":{"access":"yes","amenity":"parking","fee":"yes","parking":"surface"},"relations":[],"meta":{},"geometry":"center","access":"yes","amenity":"parking","fee":"yes","parking":"surface"},"geometry":{"type":"Point","coordinates":[9.1930311,45.4943158]}},{"type":"Feature","id":"way/229065157","properties":{"type":"way","id":229065157,"tags":{"access":"yes","amenity":"parking","fee":"yes","parking":"surface"},"relations":[],"meta":{},"geometry":"center","access":"yes","amenity":"parking","fee":"yes","parking":"surface"},"geometry":{"type":"Point","coordinates":[9.1836388,45.4933648]}},{"type":"Feature","id":"way/238285757","properties":{"type":"way","id":238285757,"tags":{"bench":"no","bin":"yes","footway":"sidewalk","highway":"footway","name":"Zara M3 M5","public_transport":"platform","railway":"platform","ref":"11639","shelter":"no","surface":"asphalt"},"relations":[],"meta":{},"geometry":"center","bench":"no","bin":"yes","footway":"sidewalk","highway":"footway","name":"Zara M3 M5","public_transport":"platform","railway":"platform","ref":"11639","shelter":"no","surface":"asphalt"},"geometry":{"type":"Point","coordinates":[9.1923924,45.4923243]}},{"type":"Feature","id":"way/238285759","properties":{"type":"way","id":238285759,"tags":{"bench":"no","bin":"yes","footway":"sidewalk","highway":"footway","name":"Zara M3 M5","public_transport":"platform","ref":"11898","shelter":"no","surface":"asphalt","tactile_paving":"no","tram":"yes"},"relations":[],"meta":{},"geometry":"center","bench":"no","bin":"yes","footway":"sidewalk","highway":"footway","name":"Zara M3 M5","public_transport":"platform","ref":"11898","shelter":"no","surface":"asphalt","tactile_paving":"no","tram":"yes"},"geometry":{"type":"Point","coordinates":[9.1929104,45.4922085]}},{"type":"Feature","id":"way/238285760","properties":{"type":"way","id":238285760,"tags":{"bench":"yes","footway":"sidewalk","highway":"footway","name":"Piazzale Lagosta","name:etymology:wikidata":"Q216878","public_transport":"platform","railway":"platform","ref":"11631","shelter":"yes","smoothness":"good","surface":"paving_stones","tactile_paving":"no"},"relations":[],"meta":{},"geometry":"center","bench":"yes","footway":"sidewalk","highway":"footway","name":"Piazzale Lagosta","name:etymology:wikidata":"Q216878","public_transport":"platform","railway":"platform","ref":"11631","shelter":"yes","smoothness":"good","surface":"paving_stones","tactile_paving":"no"},"geometry":{"type":"Point","coordinates":[9.1908932,45.4896777]}},{"type":"Feature","id":"way/246512669","properties":{"type":"way","id":246512669,"tags":{"bench":"no","bin":"yes","footway":"sidewalk","highway":"footway","lit":"yes","public_transport":"platform","shelter":"yes","surface":"sett","tactile_paving":"no"},"relations":[],"meta":{},"geometry":"center","bench":"no","bin":"yes","footway":"sidewalk","highway":"footway","lit":"yes","public_transport":"platform","shelter":"yes","surface":"sett","tactile_paving":"no"},"geometry":{"type":"Point","coordinates":[9.1857688,45.4944028]}},{"type":"Feature","id":"way/246515167","properties":{"type":"way","id":246515167,"tags":{"bench":"yes","bus":"yes","footway":"sidewalk","highway":"footway","lit":"yes","public_transport":"platform","shelter":"yes","smoothness":"intermediate","surface":"asphalt"},"relations":[],"meta":{},"geometry":"center","bench":"yes","bus":"yes","footway":"sidewalk","highway":"footway","lit":"yes","public_transport":"platform","shelter":"yes","smoothness":"intermediate","surface":"asphalt"},"geometry":{"type":"Point","coordinates":[9.1910334,45.4931008]}},{"type":"Feature","id":"way/246516158","properties":{"type":"way","id":246516158,"tags":{"bench":"no","bin":"yes","comment:it":"con indicatore tempo di attesa","highway":"platform","lit":"yes","name":"Via Farini - Viale Stelvio","public_transport":"platform","railway":"platform","ref":"11618","shelter":"yes","tactile_paving":"yes"},"relations":[],"meta":{},"geometry":"center","bench":"no","bin":"yes","comment:it":"con indicatore tempo di attesa","highway":"platform","lit":"yes","name":"Via Farini - Viale Stelvio","public_transport":"platform","railway":"platform","ref":"11618","shelter":"yes","tactile_paving":"yes"},"geometry":{"type":"Point","coordinates":[9.1854442,45.494955]}},{"type":"Feature","id":"way/249284892","properties":{"type":"way","id":249284892,"tags":{"bench":"no","bin":"no","bus":"yes","footway":"sidewalk","highway":"footway","name":"Zara M3","public_transport":"platform","shelter":"yes","tactile_paving":"no"},"relations":[],"meta":{},"geometry":"center","bench":"no","bin":"no","bus":"yes","footway":"sidewalk","highway":"footway","name":"Zara M3","public_transport":"platform","shelter":"yes","tactile_paving":"no"},"geometry":{"type":"Point","coordinates":[9.1934323,45.4923783]}},{"type":"Feature","id":"way/249284893","properties":{"type":"way","id":249284893,"tags":{"bus":"yes","footway":"sidewalk","highway":"footway","public_transport":"platform","shelter":"yes","tactile_paving":"no"},"relations":[],"meta":{},"geometry":"center","bus":"yes","footway":"sidewalk","highway":"footway","public_transport":"platform","shelter":"yes","tactile_paving":"no"},"geometry":{"type":"Point","coordinates":[9.1934701,45.4924546]}},{"type":"Feature","id":"way/320830193","properties":{"type":"way","id":320830193,"tags":{"access":"yes","amenity":"parking","capacity:disabled":"no","fee":"no","parking":"surface","surface":"asphalt"},"relations":[],"meta":{},"geometry":"center","access":"yes","amenity":"parking","capacity:disabled":"no","fee":"no","parking":"surface","surface":"asphalt"},"geometry":{"type":"Point","coordinates":[9.182069,45.488279]}},{"type":"Feature","id":"way/320834050","properties":{"type":"way","id":320834050,"tags":{"access":"yes","amenity":"parking","fee:conditional":"yes @ (Mo-Sa 08:00-19:00; PH off); no @ (private)","note:fee":"tassametro nei feriali 8.00-19,00, eccetto veicoli con contrassegno zona 10","parking":"surface","surface":"asphalt"},"relations":[],"meta":{},"geometry":"center","access":"yes","amenity":"parking","fee:conditional":"yes @ (Mo-Sa 08:00-19:00; PH off); no @ (private)","note:fee":"tassametro nei feriali 8.00-19,00, eccetto veicoli con contrassegno zona 10","parking":"surface","surface":"asphalt"},"geometry":{"type":"Point","coordinates":[9.1825538,45.4906977]}},{"type":"Feature","id":"way/330859402","properties":{"type":"way","id":330859402,"tags":{"access":"yes","amenity":"parking","parking":"surface","surface":"asphalt"},"relations":[],"meta":{},"geometry":"center","access":"yes","amenity":"parking","parking":"surface","surface":"asphalt"},"geometry":{"type":"Point","coordinates":[9.1886514,45.4944398]}},{"type":"Feature","id":"way/330859404","properties":{"type":"way","id":330859404,"tags":{"access":"yes","amenity":"parking","parking":"surface","surface":"asphalt"},"relations":[],"meta":{},"geometry":"center","access":"yes","amenity":"parking","parking":"surface","surface":"asphalt"},"geometry":{"type":"Point","coordinates":[9.1883302,45.4941439]}},{"type":"Feature","id":"way/331557725","properties":{"type":"way","id":331557725,"tags":{"amenity":"fuel","brand":"TotalErg","brand:wikidata":"Q3995933","brand:wikipedia":"it:TotalErg","fuel:GTL_diesel":"yes","fuel:diesel":"yes","fuel:octane_95":"yes","name":"TotalErg","operator":"Ferrara Franco","ref:mise":"14205"},"relations":[],"meta":{},"geometry":"center","amenity":"fuel","brand":"TotalErg","brand:wikidata":"Q3995933","brand:wikipedia":"it:TotalErg","fuel:GTL_diesel":"yes","fuel:diesel":"yes","fuel:octane_95":"yes","name":"TotalErg","operator":"Ferrara Franco","ref:mise":"14205"},"geometry":{"type":"Point","coordinates":[9.1820191,45.4885708]}},{"type":"Feature","id":"way/345542600","properties":{"type":"way","id":345542600,"tags":{"amenity":"parking","fee":"yes","parking":"surface"},"relations":[],"meta":{},"geometry":"center","amenity":"parking","fee":"yes","parking":"surface"},"geometry":{"type":"Point","coordinates":[9.1819357,45.490413]}},{"type":"Feature","id":"way/371925617","properties":{"type":"way","id":371925617,"tags":{"access":"yes","amenity":"parking","parking":"surface"},"relations":[],"meta":{},"geometry":"center","access":"yes","amenity":"parking","parking":"surface"},"geometry":{"type":"Point","coordinates":[9.1895538,45.4952728]}},{"type":"Feature","id":"way/371925618","properties":{"type":"way","id":371925618,"tags":{"access":"yes","amenity":"parking","fee":"yes","parking":"surface"},"relations":[],"meta":{},"geometry":"center","access":"yes","amenity":"parking","fee":"yes","parking":"surface"},"geometry":{"type":"Point","coordinates":[9.1903601,45.4949477]}},{"type":"Feature","id":"way/371925619","properties":{"type":"way","id":371925619,"tags":{"amenity":"parking","parking":"surface"},"relations":[],"meta":{},"geometry":"center","amenity":"parking","parking":"surface"},"geometry":{"type":"Point","coordinates":[9.1904767,45.4950192]}},{"type":"Feature","id":"way/371925620","properties":{"type":"way","id":371925620,"tags":{"access":"yes","amenity":"parking","fee":"yes","parking":"surface"},"relations":[],"meta":{},"geometry":"center","access":"yes","amenity":"parking","fee":"yes","parking":"surface"},"geometry":{"type":"Point","coordinates":[9.19101,45.4948719]}},{"type":"Feature","id":"way/371925621","properties":{"type":"way","id":371925621,"tags":{"access":"yes","amenity":"parking","parking":"surface"},"relations":[],"meta":{},"geometry":"center","access":"yes","amenity":"parking","parking":"surface"},"geometry":{"type":"Point","coordinates":[9.189908,45.4950727]}},{"type":"Feature","id":"way/387315478","properties":{"type":"way","id":387315478,"tags":{"access":"private","amenity":"parking","parking":"surface"},"relations":[],"meta":{},"geometry":"center","access":"private","amenity":"parking","parking":"surface"},"geometry":{"type":"Point","coordinates":[9.1809156,45.4914638]}},{"type":"Feature","id":"way/412912694","properties":{"type":"way","id":412912694,"tags":{"access":"yes","amenity":"parking","fee":"yes","parking":"surface"},"relations":[],"meta":{},"geometry":"center","access":"yes","amenity":"parking","fee":"yes","parking":"surface"},"geometry":{"type":"Point","coordinates":[9.1816464,45.4920377]}},{"type":"Feature","id":"way/498023290","properties":{"type":"way","id":498023290,"tags":{"bench":"no","bin":"yes","footway":"sidewalk","highway":"footway","lit":"yes","name":"Via Ugo Bassi","public_transport":"platform","railway":"platform","ref":"11611","shelter":"no","surface":"asphalt","tactile_paving":"no","tram":"yes"},"relations":[],"meta":{},"geometry":"center","bench":"no","bin":"yes","footway":"sidewalk","highway":"footway","lit":"yes","name":"Via Ugo Bassi","public_transport":"platform","railway":"platform","ref":"11611","shelter":"no","surface":"asphalt","tactile_paving":"no","tram":"yes"},"geometry":{"type":"Point","coordinates":[9.1834551,45.4887254]}},{"type":"Feature","id":"way/498023304","properties":{"type":"way","id":498023304,"tags":{"bench":"yes","bin":"yes","highway":"platform","lit":"yes","name":"Via Farini - Via Valtellina","public_transport":"platform","railway":"platform","ref":"11609","shelter":"yes","tactile_paving":"yes"},"relations":[],"meta":{},"geometry":"center","bench":"yes","bin":"yes","highway":"platform","lit":"yes","name":"Via Farini - Via Valtellina","public_transport":"platform","railway":"platform","ref":"11609","shelter":"yes","tactile_paving":"yes"},"geometry":{"type":"Point","coordinates":[9.1830068,45.4891957]}},{"type":"Feature","id":"way/498023306","properties":{"type":"way","id":498023306,"tags":{"bench":"yes","bin":"yes","highway":"platform","lit":"yes","name":"Via Farini - Via Alserio","old_name":"Via Farini - Via Galli","public_transport":"platform","railway":"platform","ref":"11614","shelter":"yes","tactile_paving":"yes","tram":"yes"},"relations":[],"meta":{},"geometry":"center","bench":"yes","bin":"yes","highway":"platform","lit":"yes","name":"Via Farini - Via Alserio","old_name":"Via Farini - Via Galli","public_transport":"platform","railway":"platform","ref":"11614","shelter":"yes","tactile_paving":"yes","tram":"yes"},"geometry":{"type":"Point","coordinates":[9.184076,45.4917108]}},{"type":"Feature","id":"way/520741400","properties":{"type":"way","id":520741400,"tags":{"access":"private","amenity":"parking","parking":"surface"},"relations":[],"meta":{},"geometry":"center","access":"private","amenity":"parking","parking":"surface"},"geometry":{"type":"Point","coordinates":[9.1912078,45.4927176]}},{"type":"Feature","id":"way/889016115","properties":{"type":"way","id":889016115,"tags":{"amenity":"motorcycle_parking","capacity":"6","covered":"no","parking":"surface","surface":"asphalt"},"relations":[],"meta":{},"geometry":"center","amenity":"motorcycle_parking","capacity":"6","covered":"no","parking":"surface","surface":"asphalt"},"geometry":{"type":"Point","coordinates":[9.1855624,45.4930916]}},{"type":"Feature","id":"way/889016116","properties":{"type":"way","id":889016116,"tags":{"amenity":"parking_space","capacity":"1"},"relations":[],"meta":{},"geometry":"center","amenity":"parking_space","capacity":"1"},"geometry":{"type":"Point","coordinates":[9.1855329,45.4930816]}},{"type":"Feature","id":"way/889016117","properties":{"type":"way","id":889016117,"tags":{"amenity":"parking_space","capacity":"1"},"relations":[],"meta":{},"geometry":"center","amenity":"parking_space","capacity":"1"},"geometry":{"type":"Point","coordinates":[9.1855447,45.4930856]}},{"type":"Feature","id":"way/889016118","properties":{"type":"way","id":889016118,"tags":{"amenity":"parking_space","capacity":"1"},"relations":[],"meta":{},"geometry":"center","amenity":"parking_space","capacity":"1"},"geometry":{"type":"Point","coordinates":[9.1855565,45.4930896]}},{"type":"Feature","id":"way/889016119","properties":{"type":"way","id":889016119,"tags":{"amenity":"parking_space","capacity":"1"},"relations":[],"meta":{},"geometry":"center","amenity":"parking_space","capacity":"1"},"geometry":{"type":"Point","coordinates":[9.1855683,45.4930935]}},{"type":"Feature","id":"way/889016120","properties":{"type":"way","id":889016120,"tags":{"amenity":"parking_space","capacity":"1"},"relations":[],"meta":{},"geometry":"center","amenity":"parking_space","capacity":"1"},"geometry":{"type":"Point","coordinates":[9.1855801,45.4930974]}},{"type":"Feature","id":"way/889016121","properties":{"type":"way","id":889016121,"tags":{"amenity":"parking_space","capacity":"1"},"relations":[],"meta":{},"geometry":"center","amenity":"parking_space","capacity":"1"},"geometry":{"type":"Point","coordinates":[9.1855919,45.4931014]}},{"type":"Feature","id":"way/889016122","properties":{"type":"way","id":889016122,"tags":{"amenity":"motorcycle_parking","capacity":"10","covered":"no","parking":"surface","surface":"asphalt"},"relations":[],"meta":{},"geometry":"center","amenity":"motorcycle_parking","capacity":"10","covered":"no","parking":"surface","surface":"asphalt"},"geometry":{"type":"Point","coordinates":[9.1851146,45.4930692]}},{"type":"Feature","id":"way/889016123","properties":{"type":"way","id":889016123,"tags":{"amenity":"parking_space","capacity":"1"},"relations":[],"meta":{},"geometry":"center","amenity":"parking_space","capacity":"1"},"geometry":{"type":"Point","coordinates":[9.1850581,45.4930808]}},{"type":"Feature","id":"way/889016124","properties":{"type":"way","id":889016124,"tags":{"amenity":"parking_space","capacity":"1"},"relations":[],"meta":{},"geometry":"center","amenity":"parking_space","capacity":"1"},"geometry":{"type":"Point","coordinates":[9.1850708,45.4930783]}},{"type":"Feature","id":"way/889016125","properties":{"type":"way","id":889016125,"tags":{"amenity":"parking_space","capacity":"1"},"relations":[],"meta":{},"geometry":"center","amenity":"parking_space","capacity":"1"},"geometry":{"type":"Point","coordinates":[9.1850832,45.4930756]}},{"type":"Feature","id":"way/889016126","properties":{"type":"way","id":889016126,"tags":{"amenity":"parking_space","capacity":"1"},"relations":[],"meta":{},"geometry":"center","amenity":"parking_space","capacity":"1"},"geometry":{"type":"Point","coordinates":[9.1850958,45.4930731]}},{"type":"Feature","id":"way/889016127","properties":{"type":"way","id":889016127,"tags":{"amenity":"parking_space","capacity":"1"},"relations":[],"meta":{},"geometry":"center","amenity":"parking_space","capacity":"1"},"geometry":{"type":"Point","coordinates":[9.1851084,45.4930704]}},{"type":"Feature","id":"way/889016128","properties":{"type":"way","id":889016128,"tags":{"amenity":"parking_space","capacity":"1"},"relations":[],"meta":{},"geometry":"center","amenity":"parking_space","capacity":"1"},"geometry":{"type":"Point","coordinates":[9.1851209,45.4930679]}},{"type":"Feature","id":"way/889016129","properties":{"type":"way","id":889016129,"tags":{"amenity":"parking_space","capacity":"1"},"relations":[],"meta":{},"geometry":"center","amenity":"parking_space","capacity":"1"},"geometry":{"type":"Point","coordinates":[9.1851335,45.4930654]}},{"type":"Feature","id":"way/889016130","properties":{"type":"way","id":889016130,"tags":{"amenity":"parking_space","capacity":"1"},"relations":[],"meta":{},"geometry":"center","amenity":"parking_space","capacity":"1"},"geometry":{"type":"Point","coordinates":[9.1851461,45.4930627]}},{"type":"Feature","id":"way/889016131","properties":{"type":"way","id":889016131,"tags":{"amenity":"parking_space","capacity":"1"},"relations":[],"meta":{},"geometry":"center","amenity":"parking_space","capacity":"1"},"geometry":{"type":"Point","coordinates":[9.1851586,45.4930602]}},{"type":"Feature","id":"way/889016132","properties":{"type":"way","id":889016132,"tags":{"amenity":"parking_space","capacity":"1"},"relations":[],"meta":{},"geometry":"center","amenity":"parking_space","capacity":"1"},"geometry":{"type":"Point","coordinates":[9.1851712,45.4930577]}},{"type":"Feature","id":"way/894609633","properties":{"type":"way","id":894609633,"tags":{"access":"yes","amenity":"parking","fee":"yes","parking":"surface"},"relations":[],"meta":{},"geometry":"center","access":"yes","amenity":"parking","fee":"yes","parking":"surface"},"geometry":{"type":"Point","coordinates":[9.1925955,45.4944385]}},{"type":"Feature","id":"way/894609637","properties":{"type":"way","id":894609637,"tags":{"access":"yes","amenity":"parking","fee":"yes","parking":"surface"},"relations":[],"meta":{},"geometry":"center","access":"yes","amenity":"parking","fee":"yes","parking":"surface"},"geometry":{"type":"Point","coordinates":[9.1923188,45.4945139]}},{"type":"Feature","id":"way/894609638","properties":{"type":"way","id":894609638,"tags":{"access":"yes","amenity":"parking","fee":"yes","parking":"surface"},"relations":[],"meta":{},"geometry":"center","access":"yes","amenity":"parking","fee":"yes","parking":"surface"},"geometry":{"type":"Point","coordinates":[9.1918785,45.4946348]}},{"type":"Feature","id":"way/894637743","properties":{"type":"way","id":894637743,"tags":{"access":"yes","amenity":"parking","parking":"surface"},"relations":[],"meta":{},"geometry":"center","access":"yes","amenity":"parking","parking":"surface"},"geometry":{"type":"Point","coordinates":[9.1893383,45.4952281]}},{"type":"Feature","id":"way/894637744","properties":{"type":"way","id":894637744,"tags":{"access":"yes","amenity":"parking","fee":"yes","parking":"surface"},"relations":[],"meta":{},"geometry":"center","access":"yes","amenity":"parking","fee":"yes","parking":"surface"},"geometry":{"type":"Point","coordinates":[9.1909219,45.4947933]}},{"type":"Feature","id":"way/894941338","properties":{"type":"way","id":894941338,"tags":{"bench":"no","bus":"yes","highway":"platform","lit":"yes","public_transport":"platform","shelter":"no","smoothness":"intermediate","surface":"asphalt"},"relations":[],"meta":{},"geometry":"center","bench":"no","bus":"yes","highway":"platform","lit":"yes","public_transport":"platform","shelter":"no","smoothness":"intermediate","surface":"asphalt"},"geometry":{"type":"Point","coordinates":[9.1902598,45.4932178]}},{"type":"Feature","id":"way/918749158","properties":{"type":"way","id":918749158,"tags":{"bench":"no","bin":"yes","bus":"no","comment:it":"con indicatore tempo di attesa","footway":"sidewalk","highway":"footway","lit":"yes","public_transport":"platform","railway":"platform","shelter":"yes","smoothness":"good","surface":"paving_stones","tactile_paving":"yes","traffic_sign":"yes","tram":"yes"},"relations":[],"meta":{},"geometry":"center","bench":"no","bin":"yes","bus":"no","comment:it":"con indicatore tempo di attesa","footway":"sidewalk","highway":"footway","lit":"yes","public_transport":"platform","railway":"platform","shelter":"yes","smoothness":"good","surface":"paving_stones","tactile_paving":"yes","traffic_sign":"yes","tram":"yes"},"geometry":{"type":"Point","coordinates":[9.1831381,45.489228]}},{"type":"Feature","id":"way/936491144","properties":{"type":"way","id":936491144,"tags":{"bench":"yes","bin":"no","footway":"sidewalk","highway":"footway","lit":"yes","name":"Piazzale Lagosta","name:etymology:wikidata":"Q216878","public_transport":"platform","railway":"platform","ref":"12941","shelter":"yes","smoothness":"good","surface":"paving_stones","tactile_paving":"no","tram":"yes"},"relations":[],"meta":{},"geometry":"center","bench":"yes","bin":"no","footway":"sidewalk","highway":"footway","lit":"yes","name":"Piazzale Lagosta","name:etymology:wikidata":"Q216878","public_transport":"platform","railway":"platform","ref":"12941","shelter":"yes","smoothness":"good","surface":"paving_stones","tactile_paving":"no","tram":"yes"},"geometry":{"type":"Point","coordinates":[9.1914297,45.4895894]}},{"type":"Feature","id":"way/1034596971","properties":{"type":"way","id":1034596971,"tags":{"amenity":"parking","parking":"lane"},"relations":[],"meta":{},"geometry":"center","amenity":"parking","parking":"lane"},"geometry":{"type":"Point","coordinates":[9.1913062,45.4933523]}},{"type":"Feature","id":"way/1049613331","properties":{"type":"way","id":1049613331,"tags":{"bench":"yes","bin":"yes","bus":"yes","footway":"sidewalk","highway":"footway","lit":"yes","mapillary":"214598703618445","name":"Via Farini Via Alserio","public_transport":"platform","railway":"platform","ref":"11613","shelter":"yes","surface":"asphalt","survey:date":"2021-03-18","tactile_paving":"yes","tram":"yes"},"relations":[],"meta":{},"geometry":"center","bench":"yes","bin":"yes","bus":"yes","footway":"sidewalk","highway":"footway","lit":"yes","mapillary":"214598703618445","name":"Via Farini Via Alserio","public_transport":"platform","railway":"platform","ref":"11613","shelter":"yes","surface":"asphalt","survey:date":"2021-03-18","tactile_paving":"yes","tram":"yes"},"geometry":{"type":"Point","coordinates":[9.1838508,45.4909147]}},{"type":"Feature","id":"way/1089410895","properties":{"type":"way","id":1089410895,"tags":{"bus":"yes","footway":"sidewalk","highway":"footway","lit":"yes","motor_vehicle":"no","public_transport":"platform","shelter":"no","surface":"ground","tactile_paving":"no"},"relations":[],"meta":{},"geometry":"center","bus":"yes","footway":"sidewalk","highway":"footway","lit":"yes","motor_vehicle":"no","public_transport":"platform","shelter":"no","surface":"ground","tactile_paving":"no"},"geometry":{"type":"Point","coordinates":[9.1922456,45.4918634]}},{"type":"Feature","id":"way/1089411246","properties":{"type":"way","id":1089411246,"tags":{"bench":"no","bin":"yes","bus":"yes","footway":"sidewalk","highway":"footway","lit":"yes","public_transport":"platform","shelter":"no","smoothness":"good","surface":"asphalt","tactile_paving":"yes"},"relations":[],"meta":{},"geometry":"center","bench":"no","bin":"yes","bus":"yes","footway":"sidewalk","highway":"footway","lit":"yes","public_transport":"platform","shelter":"no","smoothness":"good","surface":"asphalt","tactile_paving":"yes"},"geometry":{"type":"Point","coordinates":[9.1929507,45.4921023]}},{"type":"Feature","id":"way/1089411494","properties":{"type":"way","id":1089411494,"tags":{"bus":"yes","footway":"sidewalk","highway":"footway","lit":"yes","public_transport":"platform","shelter":"no","smoothness":"good","surface":"asphalt","tactile_paving":"no","width":"1.3 m"},"relations":[],"meta":{},"geometry":"center","bus":"yes","footway":"sidewalk","highway":"footway","lit":"yes","public_transport":"platform","shelter":"no","smoothness":"good","surface":"asphalt","tactile_paving":"no","width":"1.3 m"},"geometry":{"type":"Point","coordinates":[9.1910353,45.4929218]}},{"type":"Feature","id":"way/1089413213","properties":{"type":"way","id":1089413213,"tags":{"bench":"no","bin":"yes","bus":"yes","footway":"sidewalk","highway":"footway","lit":"no","public_transport":"platform","shelter":"no","smoothness":"good","surface":"asphalt","tactile_paving":"no"},"relations":[],"meta":{},"geometry":"center","bench":"no","bin":"yes","bus":"yes","footway":"sidewalk","highway":"footway","lit":"no","public_transport":"platform","shelter":"no","smoothness":"good","surface":"asphalt","tactile_paving":"no"},"geometry":{"type":"Point","coordinates":[9.1934932,45.4922693]}},{"type":"Feature","id":"way/1089421574","properties":{"type":"way","id":1089421574,"tags":{"bench":"yes","bin":"yes","bus":"yes","footway":"sidewalk","highway":"footway","lit":"yes","public_transport":"platform","shelter":"yes","surface":"asphalt","tactile_paving":"no"},"relations":[],"meta":{},"geometry":"center","bench":"yes","bin":"yes","bus":"yes","footway":"sidewalk","highway":"footway","lit":"yes","public_transport":"platform","shelter":"yes","surface":"asphalt","tactile_paving":"no"},"geometry":{"type":"Point","coordinates":[9.1927134,45.4930789]}},{"type":"Feature","id":"way/1089422113","properties":{"type":"way","id":1089422113,"tags":{"bench":"no","bin":"yes","bus":"yes","footway":"sidewalk","highway":"footway","lit":"yes","public_transport":"platform","shelter":"no","surface":"asphalt","tactile_paving":"no"},"relations":[],"meta":{},"geometry":"center","bench":"no","bin":"yes","bus":"yes","footway":"sidewalk","highway":"footway","lit":"yes","public_transport":"platform","shelter":"no","surface":"asphalt","tactile_paving":"no"},"geometry":{"type":"Point","coordinates":[9.1929279,45.4934471]}},{"type":"Feature","id":"way/1089422349","properties":{"type":"way","id":1089422349,"tags":{"bench":"no","bin":"yes","bus":"yes","footway":"sidewalk","highway":"footway","lit":"yes","name":"Zara M3 M5","public_transport":"platform","shelter":"no","surface":"asphalt","tactile_paving":"no"},"relations":[],"meta":{},"geometry":"center","bench":"no","bin":"yes","bus":"yes","footway":"sidewalk","highway":"footway","lit":"yes","name":"Zara M3 M5","public_transport":"platform","shelter":"no","surface":"asphalt","tactile_paving":"no"},"geometry":{"type":"Point","coordinates":[9.1931761,45.4938879]}},{"type":"Feature","id":"way/1089423241","properties":{"type":"way","id":1089423241,"tags":{"bus":"yes","footway":"sidewalk","highway":"footway","lit":"yes","public_transport":"platform","shelter":"yes","smoothness":"good","surface":"asphalt","tactile_paving":"yes"},"relations":[],"meta":{},"geometry":"center","bus":"yes","footway":"sidewalk","highway":"footway","lit":"yes","public_transport":"platform","shelter":"yes","smoothness":"good","surface":"asphalt","tactile_paving":"yes"},"geometry":{"type":"Point","coordinates":[9.1909716,45.4940898]}},{"type":"Feature","id":"way/1089423344","properties":{"type":"way","id":1089423344,"tags":{"bus":"yes","footway":"sidewalk","highway":"footway","public_transport":"platform","shelter":"no","smoothness":"good","surface":"asphalt","tactile_paving":"yes"},"relations":[],"meta":{},"geometry":"center","bus":"yes","footway":"sidewalk","highway":"footway","public_transport":"platform","shelter":"no","smoothness":"good","surface":"asphalt","tactile_paving":"yes"},"geometry":{"type":"Point","coordinates":[9.1913662,45.4943826]}},{"type":"Feature","id":"way/1089423590","properties":{"type":"way","id":1089423590,"tags":{"bus":"yes","fixme":"misurare larghezza in campo","footway":"sidewalk","highway":"footway","lit":"yes","public_transport":"platform","shelter":"no","smoothness":"good","surface":"asphalt","tactile_paving":"yes","width":"1.09 m"},"relations":[],"meta":{},"geometry":"center","bus":"yes","fixme":"misurare larghezza in campo","footway":"sidewalk","highway":"footway","lit":"yes","public_transport":"platform","shelter":"no","smoothness":"good","surface":"asphalt","tactile_paving":"yes","width":"1.09 m"},"geometry":{"type":"Point","coordinates":[9.191042,45.4931937]}},{"type":"Feature","id":"way/1089428746","properties":{"type":"way","id":1089428746,"tags":{"bench":"yes","bin":"yes","bus":"yes","footway":"sidewalk","highway":"footway","public_transport":"platform","shelter":"yes","smoothness":"good","surface":"asphalt","tactile_paving":"no"},"relations":[],"meta":{},"geometry":"center","bench":"yes","bin":"yes","bus":"yes","footway":"sidewalk","highway":"footway","public_transport":"platform","shelter":"yes","smoothness":"good","surface":"asphalt","tactile_paving":"no"},"geometry":{"type":"Point","coordinates":[9.1905172,45.4895942]}},{"type":"Feature","id":"way/1089428781","properties":{"type":"way","id":1089428781,"tags":{"bench":"yes","bin":"yes","bus":"yes","footway":"sidewalk","highway":"footway","public_transport":"platform","shelter":"yes","smoothness":"good","surface":"asphalt","tactile_paving":"no"},"relations":[],"meta":{},"geometry":"center","bench":"yes","bin":"yes","bus":"yes","footway":"sidewalk","highway":"footway","public_transport":"platform","shelter":"yes","smoothness":"good","surface":"asphalt","tactile_paving":"no"},"geometry":{"type":"Point","coordinates":[9.1898383,45.4901176]}},{"type":"Feature","id":"way/1089428928","properties":{"type":"way","id":1089428928,"tags":{"bench":"yes","bus":"yes","footway":"sidewalk","highway":"footway","public_transport":"platform","shelter":"yes","smoothness":"good","surface":"asphalt","tactile_paving":"no"},"relations":[],"meta":{},"geometry":"center","bench":"yes","bus":"yes","footway":"sidewalk","highway":"footway","public_transport":"platform","shelter":"yes","smoothness":"good","surface":"asphalt","tactile_paving":"no"},"geometry":{"type":"Point","coordinates":[9.1922723,45.4892228]}},{"type":"Feature","id":"way/1089430635","properties":{"type":"way","id":1089430635,"tags":{"bench":"yes","bin":"yes","bus":"no","footway":"sidewalk","highway":"footway","lit":"yes","name":"Via Porro Lambertenghi","public_transport":"platform","ref":"11619","shelter":"no","smoothness":"good","surface":"asphalt","tactile_paving":"yes"},"relations":[],"meta":{},"geometry":"center","bench":"yes","bin":"yes","bus":"no","footway":"sidewalk","highway":"footway","lit":"yes","name":"Via Porro Lambertenghi","public_transport":"platform","ref":"11619","shelter":"no","smoothness":"good","surface":"asphalt","tactile_paving":"yes"},"geometry":{"type":"Point","coordinates":[9.1863923,45.4892332]}},{"type":"Feature","id":"way/1089430737","properties":{"type":"way","id":1089430737,"tags":{"bench":"no","bin":"yes","bus":"no","footway":"sidewalk","highway":"footway","lit":"yes","name":"Via Porro Lambertenghi","public_transport":"platform","ref":"11627","shelter":"no","smoothness":"excellent","surface":"asphalt","tactile_paving":"yes"},"relations":[],"meta":{},"geometry":"center","bench":"no","bin":"yes","bus":"no","footway":"sidewalk","highway":"footway","lit":"yes","name":"Via Porro Lambertenghi","public_transport":"platform","ref":"11627","shelter":"no","smoothness":"excellent","surface":"asphalt","tactile_paving":"yes"},"geometry":{"type":"Point","coordinates":[9.1868948,45.489092]}},{"type":"Feature","id":"way/1152004865","properties":{"type":"way","id":1152004865,"tags":{"bench":"yes","bus":"no","footway":"sidewalk","highway":"footway","name":"Via Ugo Bassi","public_transport":"platform","ref":"11615","shelter":"yes","tactile_paving":"yes"},"relations":[],"meta":{},"geometry":"center","bench":"yes","bus":"no","footway":"sidewalk","highway":"footway","name":"Via Ugo Bassi","public_transport":"platform","ref":"11615","shelter":"yes","tactile_paving":"yes"},"geometry":{"type":"Point","coordinates":[9.1846441,45.4889548]}},{"type":"Feature","id":"way/1204856698","properties":{"type":"way","id":1204856698,"tags":{"bench":"yes","bin":"yes","footway":"sidewalk","highway":"footway","lit":"yes","name":"P.le Lagosta","public_transport":"platform","railway":"platform","shelter":"yes","smoothness":"good","surface":"paving_stones","tactile_paving":"yes"},"relations":[],"meta":{},"geometry":"center","bench":"yes","bin":"yes","footway":"sidewalk","highway":"footway","lit":"yes","name":"P.le Lagosta","public_transport":"platform","railway":"platform","shelter":"yes","smoothness":"good","surface":"paving_stones","tactile_paving":"yes"},"geometry":{"type":"Point","coordinates":[9.1914718,45.4895196]}}]}